[{"type":"Feature","properties":{"name":"Donnelly Group","description":"Optional contextually-based info-mediaries","phone":"118-113-7871","address":"659 Romaguera Orchard","city":"Barranquilla","state":"Atlantico","country":"Colombia"},"geometry":{"coordinates":[-74.818291,10.991915],"type":"Point"},"id":"0218f0eff9b129d6da292793901eb168"},{"type":"Feature","properties":{"name":"Wolf - Wintheiser","description":"Persistent background hub","phone":"402-688-0249","address":"84202 Kutch Land","city":"Barranquilla","state":"Atlantico","country":"Colombia"},"geometry":{"coordinates":[-74.826209,10.998855],"type":"Point"},"id":"0768c97678ae7d58555cf53a9cd32ad6"},{"type":"Feature","properties":{"name":"Kutch - Heidenreich","description":"Function-based bandwidth-monitored productivity","phone":"664-688-7296","address":"8215 Dickinson Lake","city":"Barranquilla","state":"Atlantico","country":"Colombia"},"geometry":{"coordinates":[-74.801501,10.978011],"type":"Point"},"id":"07843f2160cace2b63cfb1c940c8787c"},{"type":"Feature","properties":{"name":"Rath, Anderson and Bogisich","description":"Expanded 5th generation implementation","phone":"173-203-4701","address":"3834 Janie Skyway","city":"Barranquilla","state":"Atlantico","country":"Colombia"},"geometry":{"coordinates":[-74.78312,10.950352],"type":"Point"},"id":"089a0d3f932ee5e62dbf02dac6eb2c3f"},{"type":"Feature","properties":{"name":"Hauck, Ebert and Dach","description":"Organic mission-critical internet solution","phone":"806-576-5396","address":"9759 O'Hara Manor","city":"Barranquilla","state":"Atlantico","country":"Colombia"},"geometry":{"coordinates":[-74.812,10.972493],"type":"Point"},"id":"0ad3a499ca5af570370ebb40307c5432"},{"type":"Feature","properties":{"name":"Goldner, Kreiger and Kassulke","description":"Decentralized encompassing strategy","phone":"405-416-9448","address":"150 Kim Plaza","city":"Barranquilla","state":"Atlantico","country":"Colombia"},"geometry":{"coordinates":[-74.807273,10.995935],"type":"Point"},"id":"0d5fc1a263973dba18db924c680659fa"},{"type":"Feature","properties":{"name":"White - Brown","description":"Configurable directional function","phone":"324-062-9394","address":"9424 Renner Vista","city":"Barranquilla","state":"Atlantico","country":"Colombia"},"geometry":{"coordinates":[-74.795633,10.960382],"type":"Point"},"id":"1085f4a64b80b06bcce9ea48f176d589"},{"type":"Feature","properties":{"name":"Fritsch, Will and Gerlach","description":"Proactive full-range concept","phone":"550-135-2348","address":"10827 Bosco Shores","city":"Barranquilla","state":"Atlantico","country":"Colombia"},"geometry":{"coordinates":[-74.812883,11.009924],"type":"Point"},"id":"2086af158df338031b2fcb4773483f0f"},{"type":"Feature","properties":{"name":"Schmeler, Hodkiewicz and Treutel","description":"Fundamental multi-tasking analyzer","phone":"327-180-4676","address":"3736 Isaiah Tunnel","city":"Barranquilla","state":"Atlantico","country":"Colombia"},"geometry":{"coordinates":[-74.79646,10.985662],"type":"Point"},"id":"24cda293c209c9d40cc7f099fbe037a6"},{"type":"Feature","properties":{"name":"Thiel, Paucek and Dach","description":"Expanded static knowledge user","phone":"423-676-1833","address":"63646 Ellsworth Curve","city":"Barranquilla","state":"Atlantico","country":"Colombia"},"geometry":{"coordinates":[-74.804294,11.013023],"type":"Point"},"id":"268d868f75ed5d016039da3a60ef6e3c"},{"type":"Feature","properties":{"name":"Bashirian - Fadel","description":"Reverse-engineered asymmetric software","phone":"596-770-7559","address":"980 Olaf Isle","city":"Barranquilla","state":"Atlantico","country":"Colombia"},"geometry":{"coordinates":[-74.791002,10.970168],"type":"Point"},"id":"298569fb4803cbb8ac2e8ed0488d132d"},{"type":"Feature","properties":{"name":"Wunsch - Torp","description":"Visionary value-added support","phone":"801-326-7043","address":"35644 Purdy Square","city":"Barranquilla","state":"Atlantico","country":"Colombia"},"geometry":{"coordinates":[-74.808005,10.961353],"type":"Point"},"id":"2c3546e6117580a50991de04b26f5358"},{"type":"Feature","properties":{"name":"Herzog - Schoen","description":"User-friendly bottom-line hierarchy","phone":"672-238-0121","address":"5971 Labadie Parkways","city":"Barranquilla","state":"Atlantico","country":"Colombia"},"geometry":{"coordinates":[-74.823982,11.009369],"type":"Point"},"id":"366306aead093be9bc4003357ab23580"},{"type":"Feature","properties":{"name":"Mohr Group","description":"Horizontal executive functionalities","phone":"290-741-9424","address":"6509 Block Lane","city":"Barranquilla","state":"Atlantico","country":"Colombia"},"geometry":{"coordinates":[-74.829068,11.005906],"type":"Point"},"id":"372d8991a9b4e5d629a5e0f5c2d4ab85"},{"type":"Feature","properties":{"name":"Lueilwitz, Nicolas and Haag","description":"Monitored asymmetric internet solution","phone":"679-178-8996","address":"7087 Orn Islands","city":"Barranquilla","state":"Atlantico","country":"Colombia"},"geometry":{"coordinates":[-74.806202,10.940009],"type":"Point"},"id":"3be402aeb96c1cb8644fff212f17fd99"},{"type":"Feature","properties":{"name":"O'Keefe - Rutherford","description":"Re-contextualized contextually-based portal","phone":"648-214-7992","address":"955 MacGyver Route","city":"Barranquilla","state":"Atlantico","country":"Colombia"},"geometry":{"coordinates":[-74.808571,10.96701],"type":"Point"},"id":"41f9dcd0f4e4dcea6b586d5b43568144"},{"type":"Feature","properties":{"name":"Hyatt, Durgan and Reichert","description":"Synchronised real-time structure","phone":"485-560-7120","address":"58386 Koepp Ferry","city":"Barranquilla","state":"Atlantico","country":"Colombia"},"geometry":{"coordinates":[-74.803727,11.002221],"type":"Point"},"id":"43774b462a871fd14b8202a69bf38703"},{"type":"Feature","properties":{"name":"Schimmel - Padberg","description":"Enhanced actuating complexity","phone":"185-671-2362","address":"38241 Jazmin Estate","city":"Barranquilla","state":"Atlantico","country":"Colombia"},"geometry":{"coordinates":[-74.79185,10.993616],"type":"Point"},"id":"48845f62cd427842e04cac5d2ba75608"},{"type":"Feature","properties":{"name":"Hayes, Cartwright and Marvin","description":"Enhanced foreground emulation","phone":"344-484-9266","address":"654 Anais Skyway","city":"Barranquilla","state":"Atlantico","country":"Colombia"},"geometry":{"coordinates":[-74.813096,10.959896],"type":"Point"},"id":"55c3a3341974a9810725b7dd9e0fcdac"},{"type":"Feature","properties":{"name":"Murazik, Medhurst and Prohaska","description":"Configurable non-volatile capacity","phone":"914-391-8329","address":"5526 Domenick Rapid","city":"Barranquilla","state":"Atlantico","country":"Colombia"},"geometry":{"coordinates":[-74.872022,11.015129],"type":"Point"},"id":"56a8a331f300891a7f9e979d1e657b64"},{"type":"Feature","properties":{"name":"Predovic - Sanford","description":"Innovative object-oriented Graphic Interface","phone":"841-759-5935","address":"72581 Wilson Highway","city":"Barranquilla","state":"Atlantico","country":"Colombia"},"geometry":{"coordinates":[-74.801077,10.984465],"type":"Point"},"id":"589604f58994e26d13a67e07cb529e66"},{"type":"Feature","properties":{"name":"Casper, Reilly and Runte","description":"Vision-oriented needs-based product","phone":"339-892-8474","address":"8932 Margaretta Drives","city":"Barranquilla","state":"Atlantico","country":"Colombia"},"geometry":{"coordinates":[-74.81861,11.017534],"type":"Point"},"id":"5ca739254988feb9f174e6ddbdd1ab70"},{"type":"Feature","properties":{"name":"Runte and Sons","description":"Multi-tiered multi-tasking artificial intelligence","phone":"631-753-2277","address":"845 Alberto Terrace","city":"Barranquilla","state":"Atlantico","country":"Colombia"},"geometry":{"coordinates":[-74.803905,11.020518],"type":"Point"},"id":"6319af3713b174145661aee75abbcad4"},{"type":"Feature","properties":{"name":"Hegmann, Herman and Blick","description":"Configurable heuristic productivity","phone":"873-816-6594","address":"695 Zora Drive","city":"Barranquilla","state":"Atlantico","country":"Colombia"},"geometry":{"coordinates":[-74.816594,11.007357],"type":"Point"},"id":"64d2c36727b63289868b087548a3f0ce"},{"type":"Feature","properties":{"name":"Shanahan Inc","description":"Ergonomic local protocol","phone":"370-004-3363","address":"55343 Runolfsson Estate","city":"Barranquilla","state":"Atlantico","country":"Colombia"},"geometry":{"coordinates":[-74.811328,10.994313],"type":"Point"},"id":"69ae4beb54d1d79b369551ba3b17737b"},{"type":"Feature","properties":{"name":"Kling LLC","description":"Decentralized stable intranet","phone":"267-486-7681","address":"365 Schmitt Road","city":"Barranquilla","state":"Atlantico","country":"Colombia"},"geometry":{"coordinates":[-74.801713,10.960208],"type":"Point"},"id":"6fd71b0f306834b1eb9ab181e1014d97"},{"type":"Feature","properties":{"name":"Waelchi, Graham and Goldner","description":"Open-source next generation service-desk","phone":"284-191-1345","address":"021 Keshaun Junction","city":"Barranquilla","state":"Atlantico","country":"Colombia"},"geometry":{"coordinates":[-74.8161,11.001458],"type":"Point"},"id":"74d996c7ced8006b6187bb41b4f489eb"},{"type":"Feature","properties":{"name":"Goyette - Schinner","description":"Assimilated secondary instruction set","phone":"764-919-4559","address":"36796 Floyd Fort","city":"Barranquilla","state":"Atlantico","country":"Colombia"},"geometry":{"coordinates":[-74.815499,11.014099],"type":"Point"},"id":"780fbce9f1880e58d806e055b8195279"},{"type":"Feature","properties":{"name":"Keebler LLC","description":"Extended system-worthy Graphic Interface","phone":"563-952-1330","address":"699 Weber Inlet","city":"Barranquilla","state":"Atlantico","country":"Colombia"},"geometry":{"coordinates":[-74.811363,11.018818],"type":"Point"},"id":"79a4637b6ba68ea309848c5865bd981a"},{"type":"Feature","properties":{"name":"Lakin, Rutherford and Hauck","description":"Switchable motivating framework","phone":"079-800-6870","address":"9006 Melba Estate","city":"Barranquilla","state":"Atlantico","country":"Colombia"},"geometry":{"coordinates":[-74.804294,10.947541],"type":"Point"},"id":"79ded63e51358732c54d5c5efed4da24"},{"type":"Feature","properties":{"name":"Hudson, Grant and Stark","description":"Progressive intermediate groupware","phone":"771-403-7635","address":"8139 Murphy Streets","city":"Barranquilla","state":"Atlantico","country":"Colombia"},"geometry":{"coordinates":[-74.803162,10.972597],"type":"Point"},"id":"83a3e7fc4453857e3489d088d69b3df8"},{"type":"Feature","properties":{"name":"Von - Feest","description":"Multi-channelled scalable conglomeration","phone":"151-087-3993","address":"9735 Donnelly Hills","city":"Barranquilla","state":"Atlantico","country":"Colombia"},"geometry":{"coordinates":[-74.830453,10.976365],"type":"Point"},"id":"8455c1ae9753796f269326d4aca8defc"},{"type":"Feature","properties":{"name":"Collier, Osinski and Schuster","description":"Profit-focused reciprocal interface","phone":"883-642-0128","address":"112 Pfannerstill Knoll","city":"Barranquilla","state":"Atlantico","country":"Colombia"},"geometry":{"coordinates":[-74.796587,11.008537],"type":"Point"},"id":"8457f85e621d4423c4a3901acaeba57f"},{"type":"Feature","properties":{"name":"Kuhlman - Botsford","description":"Reduced 24 hour success","phone":"744-201-0758","address":"764 Pollich Pine","city":"Barranquilla","state":"Atlantico","country":"Colombia"},"geometry":{"coordinates":[-74.78517,10.963887],"type":"Point"},"id":"89e9c70f910a0f9be257ba494e5c190e"},{"type":"Feature","properties":{"name":"Rice and Sons","description":"Intuitive intermediate benchmark","phone":"905-058-8393","address":"43587 Stanton Coves","city":"Barranquilla","state":"Atlantico","country":"Colombia"},"geometry":{"coordinates":[-74.808288,10.953579],"type":"Point"},"id":"980727f6fd76bfdc45b9dc16f11f6aa4"},{"type":"Feature","properties":{"name":"Keebler, Emard and Ernser","description":"Cloned homogeneous project","phone":"457-117-9001","address":"35016 Smitham Creek","city":"Barranquilla","state":"Atlantico","country":"Colombia"},"geometry":{"coordinates":[-74.805495,11.008641],"type":"Point"},"id":"9a37db1c9797f1089c20a08a26ce77b2"},{"type":"Feature","properties":{"name":"Graham, Bode and Harris","description":"Customizable asynchronous focus group","phone":"321-075-2700","address":"10848 Funk Road","city":"Barranquilla","state":"Atlantico","country":"Colombia"},"geometry":{"coordinates":[-74.794855,10.981516],"type":"Point"},"id":"9b310d4249442f3f9cbfccb59f78dc19"},{"type":"Feature","properties":{"name":"Hansen, Satterfield and Kutch","description":"Triple-buffered scalable success","phone":"182-760-1589","address":"25431 Green Rapid","city":"Barranquilla","state":"Atlantico","country":"Colombia"},"geometry":{"coordinates":[-74.782024,10.971174],"type":"Point"},"id":"9ecba6cd2bad962c8589a16f149b8fff"},{"type":"Feature","properties":{"name":"Greenholt - Jenkins","description":"Cloned reciprocal success","phone":"067-199-2659","address":"175 Bednar Squares","city":"Barranquilla","state":"Atlantico","country":"Colombia"},"geometry":{"coordinates":[-74.795492,10.954239],"type":"Point"},"id":"bea51b3b2ce0063b21e36a7d9686d195"},{"type":"Feature","properties":{"name":"Macejkovic and Sons","description":"Total system-worthy standardization","phone":"941-950-3142","address":"7393 Vandervort Inlet","city":"Barranquilla","state":"Atlantico","country":"Colombia"},"geometry":{"coordinates":[-74.786902,10.941016],"type":"Point"},"id":"befefa0c755ca674c7a8924732f9b986"},{"type":"Feature","properties":{"name":"O'Connell - Kub","description":"Synchronised object-oriented architecture","phone":"863-063-6474","address":"656 Connelly Rapids","city":"Barranquilla","state":"Atlantico","country":"Colombia"},"geometry":{"coordinates":[-74.82476,10.990319],"type":"Point"},"id":"c6f5c7fa72361bd6504380485256e4d7"},{"type":"Feature","properties":{"name":"O'Reilly and Sons","description":"Object-based transitional workforce","phone":"176-696-7200","address":"1077 Emmerich Spur","city":"Barranquilla","state":"Atlantico","country":"Colombia"},"geometry":{"coordinates":[-74.786513,10.974298],"type":"Point"},"id":"cc2b52db3be3387ddd4fcc987d3b5622"},{"type":"Feature","properties":{"name":"Bechtelar - Farrell","description":"Devolved incremental local area network","phone":"040-596-2692","address":"539 Collier Junctions","city":"Barranquilla","state":"Atlantico","country":"Colombia"},"geometry":{"coordinates":[-74.795456,10.944487],"type":"Point"},"id":"cf65aec52a54e36832c107e19e8cf01c"},{"type":"Feature","properties":{"name":"Medhurst LLC","description":"Vision-oriented contextually-based attitude","phone":"715-164-8821","address":"7177 Kiehn Trail","city":"Barranquilla","state":"Atlantico","country":"Colombia"},"geometry":{"coordinates":[-74.849823,11.01957],"type":"Point"},"id":"d0ff82cf8c27c47403afedbbc97b85de"},{"type":"Feature","properties":{"name":"Medhurst Inc","description":"Visionary neutral success","phone":"003-338-1033","address":"093 Miller Pike","city":"Barranquilla","state":"Atlantico","country":"Colombia"},"geometry":{"coordinates":[-74.814121,10.976261],"type":"Point"},"id":"e253b8a8b576fe7db4b2114aea9f4858"},{"type":"Feature","properties":{"name":"Jones Inc","description":"Organized upward-trending migration","phone":"721-534-0497","address":"61494 Walsh Parkway","city":"Barranquilla","state":"Atlantico","country":"Colombia"},"geometry":{"coordinates":[-74.796906,10.969335],"type":"Point"},"id":"ed369c031e3b307bc8f2c0af05de125c"},{"type":"Feature","properties":{"name":"Feest - Bogisich","description":"Triple-buffered bottom-line challenge","phone":"981-842-9590","address":"644 Daisy Vista","city":"Barranquilla","state":"Atlantico","country":"Colombia"},"geometry":{"coordinates":[-74.804576,10.963123],"type":"Point"},"id":"f9bf1e8e03653d95ac94e065840c1c2a"},{"type":"Feature","properties":{"name":"Rempel and Sons","description":"Enterprise-wide global encoding","phone":"949-232-1586","address":"9784 Collin Row","city":"Barranquilla","state":"Atlantico","country":"Colombia"},"geometry":{"coordinates":[-74.774989,10.938413],"type":"Point"},"id":"feb4e57b3f8c4635fc0fd88d199e1da5"}]